stop_id,stop_name,stop_lat,stop_lon
8504221,Neuchâtel,46.996723,6.935705
8503427,Schlatt,47.679502,8.687496
8502207,Sihlbrugg,47.238427,8.577041
8502185,Bremgarten Isenlauf,47.345936,8.341524
8501670,Niederwald,46.435336,8.190215
8508164,St. Urban Ziegelei,47.227326,7.836058
8504000,Pully-Nord,46.51467,6.657988
8509156,Litzirüti,46.797952,9.703268
8501068,Trélex,46.413706,6.206434
8503137,Gibswil,47.313715,8.915494
8501390,Belmont-sur-Montreux,46.442035,6.90613
8501110,Ependes,46.74641,6.607658
8503409,Bad Zurzach,47.588311,8.295564
8506204,Lütisburg,47.383828,9.070674
8506003,Sennhof-Kyburg,47.465174,8.76033
8506009,Saland,47.394213,8.854203
8503411,Koblenz Dorf,47.609384,8.240138
8508101,Roggwil-Wynau,47.251629,7.814904
8501093,Yens,46.519946,6.42733
8506214,Sitterdorf,47.505222,9.248985
8503503,Turgi,47.491755,8.253441
8501179,Pont-de-Drapel,46.319862,6.98653
8500031,Diepflingen,47.449556,7.837702
8503056,Ringlikon,47.360229,8.477376
8507290,Zweisimmen,46.55309,7.37532
8518459,Steinhausen Rigiblick,47.187894,8.479691
8504485,Ferenbalm-Gurbrü,46.954054,7.218866
8509260,Cinuos-chel-Brail,46.638532,10.021923
8509075,Davos Frauenkirch,46.766606,9.799247
8505172,Oberalppass,46.660231,8.670502
8501491,Les Posses,46.271165,7.050901
8504471,Ipsach,47.117372,7.235467
8501153,Le Lieu,46.646908,6.283447
8500268,Grandval,47.283711,7.422302
8501281,Blonay,46.465691,6.895951
8503301,Pfäffikon ZH,47.367085,8.784776
8508100,Langenthal,47.217301,7.784708
8503008,Zürich Affoltern,47.420913,8.508565
8503134,Bauma,47.368836,8.87821
8500119,Münchenstein,47.513386,7.617585
8504295,Baulmes,46.788917,6.52433
8504070,Montbovon,46.485891,7.04264
8506136,Steckborn,47.664506,8.981008
8501454,Fayot,46.212061,6.899521
8516154,Bern Brünnen Westside,46.943868,7.374681
8503107,Stäfa,47.240524,8.721631
8500209,Deitingen,47.218218,7.618899
8507276,St. Stephan,46.505128,7.400521
8504127,Faoug,46.908232,7.074592
8504416,Brügg BE,47.123629,7.278208
8501665,Münster VS,46.485363,8.266538
8500313,Rheinfelden Augarten,47.545867,7.768022
8506386,Stoss AR,47.360826,9.495171
8504317,Le Locle-Col-des-Roches,47.049879,6.726068
8504018,Ecublens-Rue,46.610418,6.811055
8501402,Bex,46.25146,7.000677
8505412,Riazzino,46.175513,8.88532
8503222,Schübelbach-Buttikon,47.176384,8.938762
8502219,Oberrüti,47.165924,8.404766
8503206,Wädenswil,47.229302,8.675192
8518100,St. Gallen Birnbäumen,47.425941,9.393429
8506354,Schwendi bei Heiden,47.459409,9.530743
8506353,Wienacht-Tobel,47.466212,9.54063
8501663,Ulrichen,46.505018,8.308816
8508261,Biglen,46.924474,7.627017
8507078,Wabern bei Bern,46.928658,7.445881
8501301,Territet,46.426378,6.922702
8530799,Meiringen Alpbach,46.723118,8.19001
8507073,Thurnen,46.813557,7.51387
8508295,Willisau,47.12256,7.997061
8501120,Lausanne,46.516779,6.629093
8501725,Versmont,46.341415,7.006964
8501094,Apples,46.550869,6.423583
8501729,Fiesch Sport- & Feriencenter,46.397328,8.130774
8500264,Oberdorf SO,47.235984,7.493763
8501095,Ballens,46.552245,6.37446
8503310,Glattbrugg,47.430826,8.558832
8506370,St. Gallen AB,47.423411,9.370588
8507092,Belp Steinbach,46.895165,7.493092
8503066,Zumikon,47.331689,8.623806
8500028,Tecknau,47.445758,7.887605
8501266,Château-de-Blonay,46.468342,6.891758
8500124,St-Ursanne,47.367693,7.165944
8503086,Zürich Brunau,47.352124,8.526232
8504117,Oberwangen,46.914563,7.362193
8508052,Bern Tiefenau,46.972743,7.450196
8508060,Grafenried,47.080121,7.511606
8502017,Waldibrücke,47.107894,8.319686
8503061,Langwies ZH,47.296049,8.694391
8509058,Seewis-Valzeina,46.976896,9.632536
8506270,St. Gallen Marktplatz,47.42639,9.376383
8506010,Sirnach,47.461992,9.000459
8507005,Rubigen,46.899167,7.545366
8500082,Bubendorf,47.459588,7.741535
8506276,Strahlholz,47.366442,9.431968
8594258,Langenthal Industrie Nord,47.228557,7.786471
8501474,Le Sépey,46.361236,7.052803
8501421,Monthey,46.255646,6.955228
8503299,Hurden,47.214148,8.800729
8506103,Müllheim-Wigoltingen,47.588168,9.015501
8507293,Oberwil im Simmental,46.656053,7.435372
8504229,Tüscherz,47.114996,7.197304
8500115,Grellingen,47.441291,7.591983
8509176,Trun,46.742543,8.990444
8501691,Riffelalp,46.004899,7.754356
8506400,Sandbüchel,47.475389,9.52175
8500128,Boncourt,47.492621,7.016542
8505219,Lamone-Cadempino,46.039721,8.932122
8506379,Altstätten Stadt,47.376758,9.537312
8501285,Fayaux,46.469974,6.907638
8518963,Solothurn Allmend,47.208876,7.521428
8530067,Les Salines,46.254836,7.027649
8501504,Chamoson,46.188836,7.241098
8500217,Olten Hammer,47.348552,7.897706
8504040,Corseaux-Cornalles,46.470446,6.824775
8506350,Walzenhausen,47.451742,9.601261
8501462,Collombey-Muraz,46.270171,6.946031
8501379,Les Sciernes,46.491457,7.034224
8508210,Escholzmatt,46.915346,7.936361
8591429,"Zürich, Wetlistrasse",47.360155,8.568626
8501208,"Lausanne, Provence",46.523383,6.608102
8506102,Hüttlingen-Mettendorf,47.58234,8.974539
8506012,Guntershausen,47.474136,8.917016
8505305,Mendrisio,45.869121,8.978602
8504121,Lucens,46.707767,6.842143
8501203,Clarens,46.442732,6.895777
8503511,Neuenhof,47.450661,8.331233
8501428,St-Gingolph (Suisse),46.39196,6.80589
8501085,Ballens-Froideville,46.549648,6.390237
8501726,Corbier,46.272173,6.951449
8516218,Winterthur Hegi,47.501565,8.769305
8502032,Boniswil,47.315035,8.184545
8506365,Schützengarten,47.4129,9.437339
8506355,Heiden,47.446416,9.53677
8500085,Niederdorf,47.40439,7.751847
8503088,Zürich HB SZU,47.377431,8.53917
8501155,Le Rocheray,46.624498,6.250302
8501015,Tannay,46.307635,6.181124
8503106,Männedorf,47.253423,8.692332
8509194,Alvaneu,46.671249,9.650732
8501463,Monthey-Ville,46.254093,6.947513
8506211,Arnegg,47.442003,9.252005
8501283,Tusinge,46.473851,6.896259
8507483,Spiez,46.686393,7.680097
8503302,Fehraltorf,47.385122,8.750265
8501668,Biel (Goms),46.455056,8.219424
8502008,Nottwil,47.138805,8.138588
8500165,Le Pied-d'Or,47.222037,7.056274
8501048,Lonay-Préverenges,46.523123,6.519546
8508070,Oberzollikofen,46.996947,7.461626
8501212,"Chavannes-p.-R., UNIL-Mouline",46.524992,6.578895
8503127,Schwerzenbach ZH,47.384381,8.658659
8507003,Gümligen,46.934315,7.505501
8501151,Les Charbonnières,46.664293,6.31709
8506284,Jakobsbad,47.32007,9.328316
8501063,Arzier,46.458621,6.21166
8501692,Riffelberg,45.992951,7.7551
8502020,Rothenburg,47.088191,8.249177
8508005,Burgdorf,47.060696,7.621688
8507374,Kleine Scheidegg,46.584795,7.960123
8501300,Montreux,46.435875,6.910432
8501634,Muttbach-Belvédère,46.567203,8.404331
8509050,Chur West,46.849938,9.512723
8503235,Leuggelbach,46.975742,9.046924
8509411,Sargans,47.045364,9.445395
8501111,Essert-Pittet,46.72766,6.580657
8500016,Basel St. Johann,47.570296,7.572512
8507476,Blausee-Mitholz,46.52897,7.675488
8506019,Islikon,47.547836,8.84618
8506363,Rank,47.420161,9.423799
8503102,Erlenbach ZH,47.305786,8.591504
8504105,Niederwangen,46.925501,7.37645
8505493,Cavigliano,46.183747,8.721424
8505470,Locarno FART,46.172675,8.801015
8504086,Bulle,46.618189,7.055037
8506213,Bischofszell Stadt,47.492142,9.241465
8501177,Bercher,46.692879,6.703648
8501081,Chigny,46.51601,6.472259
8503099,Sihlau,47.303155,8.525247
8579237,"Lausanne, Ours",46.521242,6.640677
8504298,Ste-Croix,46.819668,6.50031
8508212,Hasle LU,46.978149,8.046963
8503410,Rietheim,47.600748,8.277308
8508187,Huttwil,47.114598,7.842721
8500141,Courchavon,47.439762,7.057635
8505180,Acla da Fontauna,46.697176,8.845781
8501603,Gampel-Steg,46.306514,7.747575
8503508,Dietikon,47.405778,8.404969
8503125,Uster,47.350367,8.718688
8507277,Matten,46.493708,7.421643
8505201,Airolo,46.527527,8.608605
8503314,Niederhasli,47.478329,8.488691
8509006,Chur Wiesental,46.861898,9.531445
8502274,Zufikon,47.352524,8.354713
8505119,Göschenen,46.665817,8.588796
8503113,Blumenau,47.22367,8.842383
8507072,Burgistein,46.789435,7.521223
8501000,Zimeysa,46.221261,6.06574
8507083,Köniz,46.924877,7.415157
8501460,Croix-du-Nant,46.239664,6.927458
8509256,La Punt-Chamues-ch,46.57867,9.923336
8502184,Gränichen Oberdorf,47.356538,8.106473
8500170,Tramelan,47.222811,7.105569
8501363,Le Tremblex,46.43604,6.932758
8500214,Egerkingen,47.314858,7.798949
8503239,Linthal,46.92557,8.997778
8503231,Ennenda,47.032958,9.077182
8509070,Davos Laret,46.848094,9.87191
8504108,Bern Europaplatz,46.944206,7.406112
8504234,Chambrelien,46.967103,6.812253
8500117,Aesch,47.467736,7.603054
8501080,Le Marais,46.527461,6.462591
8506188,Bronschhofen AMP,47.481269,9.030909
8504135,Corcelles-Sud,46.828844,6.957185
8503138,Wald,47.272685,8.913989
8500212,Oensingen,47.285024,7.709854
8509404,Buchs SG,47.168409,9.478629
8506025,Etzwilen,47.661144,8.818593
8506387,Kreuzstrasse,47.365696,9.505596
8592133,"Lausanne, Vigie",46.521537,6.623926
8504489,Bern Bümpliz Nord,46.945828,7.389745
8517376,Dietikon Schöneggstrasse,47.401989,8.400912
8504225,Le Landeron,47.056627,7.066329
8501022,Versoix,46.279716,6.165746
8501124,Cully,46.488551,6.727147
8503306,Dietlikon,47.420195,8.619255
8504218,Bôle,46.968958,6.837685
8506385,Rietli,47.360707,9.487195
8504216,Noiraigue,46.954914,6.721799
8503203,Oberrieden,47.279676,8.578449
8506369,Trogen,47.407343,9.461476
8501383,Planchamp,46.451177,6.901003
8505367,Capolago Lago,45.903339,8.979757
8506124,Güttingen,47.60875,9.292227
8503309,Kloten Balsberg,47.442287,8.570701
8579239,"Epalinges, Croisettes",46.542887,6.661465
8503119,Schänis,47.157655,9.043964
8502103,Suhr,47.371633,8.082274
8508064,Bätterkinden,47.130017,7.534395
8509253,St. Moritz,46.497968,9.84639
8501181,Lausanne-Flon,46.520791,6.630349
8506175,Jakobstal,47.508903,8.944257
8508200,Worb SBB,46.915222,7.564839
8503147,Stettbach,47.397213,8.596132
8509004,Bad Ragaz,47.010307,9.505215
8504404,Aarberg,47.044537,7.278683
8519077,St-Cergue Les Cheseaux,46.446866,6.147291
8501055,Les Pralies,46.451166,6.126882
8509152,Lüen-Castiel,46.831708,9.613335
8500192,Le Bémont,47.263256,7.014251
8506362,Schwarzer Bären,47.422418,9.415438
8502276,Berikon-Widen,47.362187,8.366793
8517519,Stabio,45.849726,8.943939
8503052,Zürich Friesenberg,47.364781,8.507942
8503064,Scheuren,47.3226,8.659548
8501397,Rougemont,46.488618,7.208963
8505393,Cappella-Agnuzzo,45.993263,8.92445
8503281,Sattel-Aegeri,47.079855,8.627232
8501090,Prélionne,46.509457,6.480272
8500105,Moutier,47.280667,7.381039
8504309,Villeret,47.160196,7.019673
8501405,Vernayaz,46.138542,7.038363
8506178,Münchwilen TG,47.476844,8.999157
8506271,Gontenbad,47.33175,9.372732
8507089,Schwarzenburg,46.819189,7.342832
8507361,Eigergletscher,46.574808,7.974076
8509167,Trin,46.816578,9.359521
8508449,Aemsigen,46.970524,8.271228
8517527,Zug Casino,47.162317,8.515186
8507007,Wichtrach,46.841609,7.56885
8504106,Bern Bümpliz Süd,46.937482,7.395229
8509064,Küblis,46.914282,9.771838
8506281,Waldstatt,47.357465,9.286399
8507009,Uttigen,46.794304,7.58262
8500035,Läufelfingen,47.392125,7.856213
8507082,Bern  Europaplatz,46.943441,7.407465
8500169,Muriaux,47.243691,6.985468
8501447,Roches Grises,46.293761,7.061109
8507087,Mittelhäusern,46.876526,7.367994
8530366,Pont du Rhône,46.276149,6.961791
8502214,Boswil-Bünzen,47.305175,8.315272
8506201,Lichtensteig,47.319696,9.083172
8500303,Mumpf,47.547618,7.909612
8506176,Wängi,47.496398,8.953314
8500021,Pratteln,47.522658,7.690802
8506291,Schachen (Herisau),47.385556,9.243514
8501568,Le Châtelard-Frontière,46.053672,6.950612
8501420,Massongex,46.2412,6.985656
8501006,Meyrin,46.222332,6.076912
8516283,Genève-Sécheron,46.222436,6.144559
8506196,Lengwil,47.6256,9.19026
8507495,Leissigen,46.655109,7.775013
8505473,Ponte Brolla,46.185647,8.753308
8501100,Le Pont,46.668677,6.324657
8502181,Oberentfelden Uerkenbrücke,47.361074,8.045663
8509415,Mols,47.112988,9.276803
8506383,Hebrig,47.362147,9.464713
8501122,Lutry,46.503779,6.690611
8506366,Speicher,47.410557,9.443321
8501054,La Gottaz,46.506542,6.484467
8509054,Zizers,46.934843,9.559589
8501368,La Perche,46.436401,6.975108
8504130,Yvonand,46.800864,6.746686
8515993,Baar Lindenpark,47.183134,8.517043
8502215,Muri AG,47.276661,8.339798
8509065,Saas im Prättigau,46.907649,9.809946
8503304,Kemptthal,47.452834,8.70557
8508219,Littau,47.053062,8.257096
8508352,Brienzer Rothorn,46.787399,8.038447
8505214,Giubiasco,46.173819,9.003583
8501684,Kalpetran,46.214075,7.83697
8506277,Schwende,47.300024,9.435623
8502164,Gontenschwil,47.280403,8.144791
8501056,Sus-Châtel,46.438477,6.20587
8504463,Täuffelen,47.066506,7.198537
8508292,Hüswil,47.128553,7.90572
8509195,Filisur,46.675329,9.68229
8508153,Aarwangen,47.240507,7.769591
8508081,Burgdorf Steinhof,47.052282,7.618291
8501053,La Vuarpillière,46.398907,6.217264
8503312,Oberglatt,47.470204,8.510604
8501047,Morges-St-Jean,46.51819,6.508045
8504102,Schmitten,46.862932,7.253915
8501452,St-Triphon-Gare,46.278223,6.973735
8501230,Glion-Alpes,46.432853,6.924331
8505301,Lugano-Paradiso,45.988951,8.946275
8530334,La Médettaz,46.108834,7.007839
8504481,Marin-Epagnier,47.009099,7.010586
8504220,Neuchâtel-Serrières,46.983955,6.903358
8509401,Rüthi SG,47.286733,9.536046
8508308,Meiringen,46.72733,8.184234
8502183,Oberkulm Post,47.304104,8.119411
8509357,Alp Grüm,46.37475,10.031149
8503240,Linthal Braunwaldbahn,46.928394,9.002483
8503283,Einsiedeln,47.128583,8.744468
8500026,Sissach,47.462746,7.812018
8502278,Reppischhof,47.384731,8.39623
8504382,Le Reymond,47.087045,6.844075
8508061,Fraubrunnen,47.086456,7.52215
8530355,Les Arnoux,46.291305,6.996787
8506104,Märstetten,47.582819,9.062181
8504462,Lattrigen,47.096734,7.214207
8501062,St-Cergue,46.448598,6.16037
8507069,Ittigen bei Bern,46.97331,7.484128
8530612,Realp DFB,46.595667,8.501272
8506015,Räterschen,47.498676,8.794997
8500023,Liestal,47.484456,7.731354
8509170,Castrisch,46.778494,9.23308
8509077,Davos Monstein,46.715908,9.760012
8504010,La Conversion,46.513081,6.678325
8505079,Mittlerschwanden,47.019191,8.482469
8501369,Rochers-de-Naye,46.431676,6.979026
8507100,Thun,46.754854,7.629594
8500180,La Large-Journée,47.161255,6.8967
8505304,Capolago-Riva S. Vitale,45.902847,8.978893
8507387,Schynige Platte,46.652305,7.911301
8506372,Lustmühle,47.400244,9.359213
8500285,Flumenthal,47.239163,7.596675
8503101,Küsnacht ZH,47.319153,8.580615
8501357,Haut-de-Caux,46.434371,6.947958
8506020,Seuzach,47.535768,8.738868
8503097,Langnau-Gattikon,47.286875,8.544019
8500020,Muttenz,47.533581,7.647879
8506014,Elgg,47.498529,8.863391
8502113,Aarau,47.391356,8.051253
8503001,Zürich Altstetten,47.391481,8.48894
8504182,Belfaux-Village,46.821837,7.108844
8506359,St. Gallen Schülerhaus,47.424907,9.387531
8508083,Burgdorf Buchmatt,47.065385,7.608211
8508309,Brünig-Hasliberg,46.757764,8.138644
8503090,Zürich Selnau,47.372938,8.532033
8507373,Wengernalp,46.575561,7.93894
8506275,Steinegg,47.320556,9.430398
8501113,Bavois,46.687672,6.559331
8508301,Ringgenberg,46.703861,7.899814
8516271,Steinach,47.500862,9.44212
8500083,Lampenberg-Ramlinsburg,47.442509,7.761206
8508396,Grafenort,46.870602,8.372403
8501030,Nyon,46.384407,6.235974
8509072,Davos Dorf,46.80972,9.842112
8509255,Pontresina,46.490648,9.896077
8501601,Leuk,46.311886,7.643947
8508384,Niederrickenbach Station,46.927835,8.396194
8504509,"Neuchâtel, Port-de-Serrières",46.980913,6.904873
8506038,Winterthur Wallrüti,47.516719,8.760868
8516176,Klingnau,47.58209,8.248818
8515996,Hünenberg Zythus,47.173604,8.450074
8506132,Tägerwilen-Gottlieben,47.659618,9.132959
8504287,Fleurier,46.904859,6.581579
8500188,Bonfol,47.473978,7.155394
8506048,Marthalen,47.631076,8.656097
8502025,Baldegg,47.185684,8.280209
8504286,Môtiers,46.911854,6.610334
8500294,Balsthal,47.312889,7.693913
8500210,Wangen an der Aare,47.231952,7.656223
8516219,Mellingen Heitersberg,47.428072,8.276338
8504383,La Corbatière,47.069466,6.834897
8501382,Châtelard VD,46.446779,6.901151
8501286,Ondallaz-L'Alliaz,46.473161,6.913961
8593773,Les Bovets,46.35546,7.141645
8508001,Schönbühl SBB,47.018936,7.498923
8501602,Turtmann,46.309325,7.6996
8501387,Les Cases,46.455922,6.997719
8503526,Regensdorf-Watt,47.436563,8.472064
8506018,Rickenbach-Attikon,47.535355,8.789159
8509157,Arosa,46.783296,9.679333
8519133,Fribourg/Freiburg Poya,46.814703,7.15543
8503280,Steinerberg,47.052205,8.585263
8502223,Hedingen,47.298783,8.445953
8509068,Klosters Platz,46.869212,9.880936
8504208,Boudry,46.959445,6.835046
8508174,Gutenburg,47.181575,7.793264
8504387,Petit-Martel,47.010126,6.755279
8506285,Gonten,47.328378,9.347732
8500094,Hirschlang,47.410129,7.75518
8502203,Cham,47.178243,8.457484
8509269,Sagliains,46.763399,10.096581
8502202,Rotkreuz,47.141759,8.430474
8507079,Bern Weissenbühl,46.935773,7.430018
8504191,Flamatt Dorf,46.889905,7.310518
8504209,Colombier,46.96764,6.848869
8508269,Neumühle,46.965938,7.749178
133,Centovalli,46.154371,8.603653
8505392,Magliaso Paese,45.983412,8.890576
8509361,Poschiavo,46.324803,10.054334
8509179,Disentis/Mustér,46.704979,8.855021
8509368,Campocologno,46.233217,10.142072
8506148,St. Katharinental,47.687559,8.732017
8502029,Mosen,47.244288,8.224149
8502270,Bergfrieden,47.397714,8.399086
8501490,Fontannaz-Seulaz,46.267601,7.055856
8503094,Zürich Leimbach,47.334601,8.519603
8502192,Distelberg,47.375464,8.049243
8501386,Jor,46.454666,6.965124
8506371,St. Gallen Riethüsli,47.410436,9.366883
8500265,Gänsbrunnen,47.26546,7.465186
8501178,Grésaley,46.643167,6.642151
8507383,Lütschental,46.637102,7.94899
8509187,Rodels-Realta,46.735145,9.432934
8504126,Avenches,46.884597,7.040916
8501198,Château-d'Oex La Palaz,46.476263,7.141697
8505064,Kräbel,47.040214,8.53079
8509078,Davos Wiesen,46.695488,9.71584
8507298,Wimmis,46.675594,7.635484
8507472,Ausserberg,46.312102,7.844347
8501088,Tuilerie,46.592789,6.414221
8501666,Reckingen,46.468226,8.243882
8500272,Solothurn Sternen,47.212301,7.545353
8516350,Buchrain,47.093644,8.356637
8506314,St. Margrethen,47.453212,9.638251
8502226,Knonau,47.22026,8.466708
8505303,Maroggia-Melano,45.932443,8.973936
8504414,Lyss,47.076316,7.30629
8500087,Waldenburg,47.386284,7.748841
8509356,Ospizio Bernina,46.408763,10.019711
8509354,Bernina Suot,46.444846,9.9694
8506046,Henggart,47.564253,8.685051
8501191,Orbe,46.724389,6.530109
8503316,Steinmaur,47.489981,8.44684
8503509,Schlieren,47.399175,8.447228
8503077,Spital Zollikerberg,47.347318,8.596796
8508264,Schafhausen i.E.,46.994494,7.656829
8503054,Zürich Triemli,47.364997,8.495197
8501058,La Joy-Clinique,46.446332,6.216767
8500174,Le Noirmont,47.223678,6.956854
8500322,Laufenburg,47.559765,8.061273
8501287,Lally,46.479206,6.914033
8504297,Trois-Villes,46.800268,6.531971
8509184,Bonaduz,46.810295,9.397762
8503111,Winkel am Zürichsee,47.297201,8.598975
8014488,Trasadingen,47.665238,8.436804
8500037,Trimbach,47.366047,7.904277
8509367,Campascio,46.244671,10.131705
8504012,Puidoux-Chexbres,46.493833,6.765686
8504131,Cheyres,46.816939,6.786393
8508260,Grosshöchstetten,46.904043,7.634597
8501399,Gstaad,46.474803,7.284411
8501162,Union-Prilly,46.534713,6.609857
134,Furka,46.538322,8.435913
8503098,Sihlwald,47.268277,8.557497
8501477,Vers-l'Eglise,46.353632,7.134146
8504441,Studen BE,47.110428,7.301739
8508159,Niederbipp Dorf,47.265827,7.695129
8509359,Cadera,46.345267,10.051381
8500025,Itingen,47.467266,7.787206
8501400,Aigle,46.316845,6.96368
8503068,Maiacher,47.328178,8.631071
8502212,Dottikon-Dintikon,47.373643,8.234687
8502122,Kölliken Oberdorf,47.324674,8.01907
8504026,Cottens,46.751208,7.034796
8506302,St. Gallen,47.42318,9.369877
8508272,Sumiswald-Grünen,47.025419,7.737064
8505067,Rigi Wölfertschen-First,47.047249,8.476513
8506306,Rorschach Hafen,47.478595,9.492905
8500081,Altmarkt,47.476416,7.744709
8506173,Weberei Matzingen,47.527224,8.922198
8500080,Talhaus,47.451444,7.749763
8503010,Zürich Enge,47.364099,8.530805
8502208,Horgen Oberdorf,47.258748,8.589802
8508151,Langenthal Gaswerk,47.224801,7.782169
8506122,Uttwil,47.586022,9.339688
8507474,Goppenstein,46.367746,7.755018
8505178,Mumpé Tujetsch,46.681963,8.824442
8500186,Alle,47.424135,7.128333
8508312,Giswil,46.836535,8.186309
8516161,Bern Wankdorf,46.96782,7.465464
8507492,Interlaken Ost,46.690506,7.869005
8503095,Sood-Oberleimbach,47.319571,8.521441
8503228,Netstal,47.064528,9.059424
8501263,Château-d'Hauteville,46.468463,6.865301
8504312,Renan BE,47.125713,6.92537
8501082,Chardonney-Château,46.534693,6.432569
8506171,Frauenfeld Marktplatz,47.554202,8.898715
8506143,Münsterlingen Spital,47.632051,9.236108
8501679,Findelbach,46.009673,7.748871
8509150,Chur Stadt,46.847505,9.531161
8502002,Brittnau-Wikon,47.262663,7.957022
8500177,Les Bois,47.176897,6.906172
8508211,Schüpfheim,46.950644,8.015138
8502114,Rupperswil,47.403288,8.126944
8508320,Hergiswil Matt,46.993632,8.312711
141,Oberalp,46.652359,8.64444
8509056,Landquart Ried,46.957199,9.560866
8506307,Horn,47.493177,9.463375
8505170,Nätschen,46.642431,8.612947
8504014,Palézieux,46.542753,6.837877
8502023,Ballwil,47.153765,8.316881
8504125,Domdidier,46.868505,7.01138
8506131,Kreuzlingen,47.652555,9.169065
8504300,Biel/Bienne,47.132893,7.242908
8505111,Sisikon,46.949254,8.62073
8503295,Wilen bei Wollerau,47.19758,8.734314
8503006,Zürich Oerlikon,47.411529,8.544115
140,Gotthard-Panoramastrecke,46.604329,8.591156
8506125,Altnau,47.621366,9.265896
8501381,Vuarennes,46.439116,6.910973
8500266,Corcelles BE,47.285619,7.450351
8504124,Dompierre,46.854399,6.985358
8508059,Jegenstorf,47.047616,7.507772
8503089,Wildpark-Höfli,47.296571,8.535652
8504071,Lessoc,46.50738,7.052554
8508152,Hard-Mumenthal,47.233817,7.774871
8509373,Bernina Lagalb,46.436609,9.99194
8503404,Rafz,47.60379,8.543425
8509365,Miralago,46.273119,10.099561
8503232,Mitlödi,47.010129,9.081194
8508314,Sarnen,46.8946,8.247481
8506013,Aadorf,47.488118,8.903284
8501465,Val-d'Illiez,46.203602,6.89323
8506172,Murkart,47.537794,8.915785
8503109,Feldbach,47.239198,8.783482
8500283,Riedholz,47.231036,7.572671
8502115,Wildegg,47.415274,8.162997
8502022,Eschenbach,47.132392,8.322778
8509406,Sevelen,47.125372,9.493824
8504384,La Sagne-Eglise,47.050875,6.818537
8500213,Oberbuchsiten,47.305244,7.77171
8506297,Ebnat-Kappel,47.26366,9.120975
8503121,Rüti ZH,47.260483,8.854067
8500305,Frick,47.507344,8.013072
8503512,Glanzenberg,47.398875,8.420423
8508055,Unterzollikofen,46.991685,7.457089
8508266,Lützelflüh-Goldbach,47.004931,7.682736
8501125,Epesses,46.489319,6.745163
8506288,Weissbad,47.310869,9.435976
8505410,Gerra (Gambarogno),46.122044,8.784962
8507008,Kiesen,46.818942,7.575492
8503403,Hüntwangen-Wil,47.581267,8.51282
8504315,Le Crêt-du-Locle,47.077595,6.785177
8501404,Evionnaz,46.169243,7.025526
8501026,Genève-Aéroport,46.23253,6.111985
8506036,Reutlingen,47.529655,8.752132
8501367,Jaman,46.441338,6.976796
8501480,Rennaz (Leysin),46.327358,7.000882
8508359,Innertkirchen MIB,46.702266,8.232505
8530263,Yverdon William Barbey,46.788845,6.631625
8500144,Buix,47.479322,7.029955
8501494,Arveyes,46.291247,7.062696
8503408,Rekingen AG,47.569968,8.327111
8501458,Villy,46.286897,6.994409
8504465,Lüscherz,47.048001,7.177143
8500261,Langendorf,47.217939,7.513006
8502110,Dulliken,47.354267,7.946489
8502273,Bremgarten,47.351473,8.346555
8508304,Ebligen,46.752622,7.990027
8501376,Chamby,46.449176,6.913504
8501501,Charrat-Fully,46.126803,7.126477
8530225,Le Stand,47.005129,6.745586
8504205,Gorgier-St-Aubin,46.899066,6.781025
8504305,Corgémont,47.193388,7.144654
8501067,Givrins,46.428835,6.205231
8504138,Grolley,46.831969,7.066052
8504412,Schüpfen,47.041849,7.385997
8504024,Villaz-St-Pierre,46.720579,6.960639
8500288,Oberbipp,47.259646,7.660973
8508319,Horw,47.017478,8.306969
8501106,Croy-Romainmôtier,46.696704,6.478119
8504137,Léchelles,46.828449,7.01162
8501677,Bitsch,46.336063,8.017222
8501683,Stalden-Saas,46.231978,7.870765
8504015,Vevey-Funi,46.468272,6.835437
8502019,Ermensee,47.22969,8.242303
8501364,Les Echets,46.43218,6.944894
8507274,Blankenburg,46.541104,7.38532
8500203,Bettlach,47.194944,7.428362
8506282,Zürchersmühle,47.33033,9.292579
8501552,Les Montuires,46.06694,6.946331
8503315,Dielsdorf,47.482414,8.459421
8503000,Zürich HB,47.378177,8.540192
8508271,Grünenmatt,47.008424,7.72407
8503504,Baden,47.476421,8.307692
8508181,Langenthal Süd,47.20536,7.78021
8516444,Kerzers Papiliorama,46.989771,7.199276
8503120,Jona,47.23097,8.834598
8506107,Erlen,47.551457,9.22619
8508391,Stans,46.958322,8.366741
8501500,Martigny,46.105828,7.079122
175,Hauenstein-Basistunnel,47.401134,7.904318
8504194,Laupen,46.902601,7.238015
8506367,Bendlehn,47.406508,9.451571
8014439,Riehen,47.583156,7.652008
8503221,Siebnen-Wangen,47.182668,8.900698
8508458,Alpnachstad PB,46.955494,8.277183
8502021,Emmenbrücke,47.070598,8.282551
8506190,Bussnang,47.55608,9.08414
8509063,Fideris,46.922368,9.733756
8506039,Schloss Laufen am Rheinfall,47.67656,8.614246
8508252,Lädeli,46.781585,7.609025
8504308,Cormoret,47.172936,7.05412
8509360,Privilasco,46.337873,10.055093
8502104,Hunzenschwil,47.388284,8.125678
8509189,Thusis,46.6982,9.440501
8501456,Chemex,46.243616,6.930065
137,Rotsee,47.07453,8.320797
8508157,Holzhäusern,47.258165,7.710392
8508008,Herzogenbuchsee,47.188082,7.700946
8500260,Crémines-Zoo,47.272558,7.456626
8500086,Oberdorf BL,47.392121,7.748901
8506208,Uzwil,47.436443,9.130971
8508185,Kleindietwil,47.146304,7.790961
8592050,"Lausanne, gare",46.517593,6.629667
8592048,"Lausanne, Fourmi",46.538812,6.651055
8502230,Zug Chollermüli,47.180472,8.48576
8504023,Romont,46.693502,6.911814
8506382,Zweibrücken,47.360161,9.444524
8504410,Zollikofen,47.001822,7.462904
8501308,Glion-Collège,46.433851,6.926208
8530613,Tiefenbach DFB,46.587547,8.464628
8530790,Sorengo Laghetto,45.996816,8.933338
8502269,Erdmannlistein,47.349593,8.31276
8505497,Palagnedra,46.161194,8.630936
8507389,Zweilütschinen,46.632706,7.899704
8501675,Betten Talstation,46.371162,8.07652
8508294,Gettnau,47.140208,7.970576
8504291,La Brinaz,46.794484,6.620053
8506168,Tägerschen,47.509366,9.02478
8507294,Weissenburg,46.659312,7.475938
8530789,Bioggio Molinazzo,46.012366,8.914007
8503003,Zürich Stadelhofen,47.366611,8.548466
8504386,Les Coeudres,47.022829,6.780176
8508392,Dallenwil,46.93378,8.392058
8509002,Landquart,46.967439,9.554028
8505415,S. Antonino,46.160442,8.973924
8509193,Surava,46.666865,9.620944
8507379,Mürren BLM,46.564106,7.897242
8504100,Fribourg/Freiburg,46.803268,7.151023
8500033,Rümlingen,47.425371,7.850522
8501108,La Sarraz,46.658777,6.517365
8508207,Langnau i.E.,46.939239,7.784182
8503108,Uerikon,47.235857,8.75261
8500164,Tramelan-Chalet,47.223456,7.092441
8505495,Corcapolo,46.168815,8.675142
8508066,Lohn-Lüterkofen,47.162989,7.52695
8502306,Hünenberg Chämleten,47.169152,8.449897
8087021,Riehen Niederholz,47.569473,7.633441
8506397,Steinebrunn,47.531535,9.349839
8506126,Münsterlingen-Scherzingen,47.633424,9.226998
8506128,Kreuzlingen Hafen,47.649168,9.18196
8502106,Mägenwil,47.414503,8.235139
8506378,Gais,47.360918,9.451173
8501216,"Ecublens VD, Cerisaie",46.52775,6.566547
8502116,Schinznach Bad,47.451776,8.166928
8530749,"Renens VD, gare",46.537482,6.578071
8502128,Holderbank AG,47.428635,8.166598
8503116,Uznach,47.224276,8.980675
8501174,Sur Roche,46.640445,6.638926
8504222,St-Blaise CFF,47.014566,6.982108
8509053,Untervaz-Trimmis,46.918987,9.559173
8504072,Albeuve,46.517933,7.055423
8505307,Chiasso,45.832179,9.03144
8508251,Steffisburg,46.772913,7.61502
8508004,Lyssach,47.063758,7.581312
8507481,Mülenen,46.637928,7.691139
8503209,Pfäffikon SZ,47.202998,8.77811
8500211,Niederbipp,47.270397,7.694808
8508057,Schönbühl RBS,47.020483,7.497807
8506395,Häggenschwil-Winden,47.503859,9.358708
8509069,Cavadürli,46.870405,9.868025
8501126,Rivaz,46.474197,6.784589
8506316,Au SG,47.436114,9.641244
8508268,Zollbrück,46.976089,7.740681
8505491,Tegna,46.186014,8.74263
8507473,Hohtenn,46.322614,7.764546
8509252,Celerina,46.513983,9.858444
8501069,L'Asse,46.401807,6.211763
8501600,Salgesch,46.309448,7.579007
8504003,Bossière,46.509738,6.699324
8506106,Bürglen,47.549101,9.149855
8508321,Luzern Allmend/Messe,47.035083,8.303307
8504415,Busswil,47.098673,7.318617
8506374,Sternen bei Teufen,47.389615,9.374529
8503122,Bubikon,47.27084,8.822701
8504200,Yverdon-les-Bains,46.781877,6.641145
8506024,Stammheim,47.63488,8.788726
8507552,Brandegg,46.60918,8.011174
8501510,Châteauneuf-Conthey,46.216106,7.305106
8509192,Tiefencastel,46.663879,9.572865
8506041,Embrach-Rorbas,47.520588,8.587054
8506108,Oberaach,47.553223,9.270926
8501394,Château-d'Oex,46.47467,7.131419
8504183,Pensier,46.842848,7.137452
8509251,Samedan,46.533765,9.873635
8508464,Vitznau,47.009359,8.482383
8502247,Birr,47.43584,8.217654
8506119,Kurzrickenbach Seepark,47.643086,9.196349
8506133,Ermatingen,47.669996,9.085654
138,Vereina,46.806658,9.985895
8502237,Lupfig,47.445176,8.214967
8504113,Wünnewil,46.871859,7.280642
8503210,Freienbach SBB,47.207308,8.756199
8501687,Randa,46.099931,7.781465
8505467,S. Martino,46.172006,8.770371
8503227,Näfels-Mollis,47.09872,9.069944
8501362,Valmont,46.428549,6.929303
8501671,Fürgangen-Bellwald Talstation,46.411903,8.152316
8501495,Villars-sur-Ollon,46.296254,7.056237
8500175,Le Creux-des-Biches,47.20346,6.940645
8507478,Frutigen,46.588775,7.651597
8504223,Cornaux,47.03856,7.023363
8504484,Müntschemier,46.993316,7.142428
8517112,Walchwil Hörndli,47.108411,8.505025
8506393,Wittenbach,47.462848,9.388537
8506021,Dinhard,47.553347,8.752957
8515997,Root D4,47.104858,8.373798
8502176,Reinach AG Mitte,47.254507,8.183383
8508173,Roggwil Schmitten,47.237426,7.815082
8506377,Bühler,47.373017,9.421128
8501566,Le Châtelard VS,46.060289,6.958021
8503015,Zürich Wipkingen,47.393032,8.529359
8503104,Meilen,47.269813,8.644293
8014490,Thayngen,47.745502,8.7043
8506002,Winterthur Seen,47.487435,8.766789
8501020,Chambésy,46.242377,6.147339
8501284,Les Chevalleyres,46.475587,6.89813
8503308,Kloten,47.448608,8.583791
8502033,Birrwil,47.287848,8.198998
8508253,Heimberg,46.79089,7.606029
8506183,Tobel-Affeltrangen,47.521298,9.033688
8500208,Luterbach-Attisholz,47.217144,7.583515
8509402,Salez-Sennwald,47.241445,9.50232
8506381,Sammelplatz,47.348483,9.432554
8508154,Aarwangen Schloss,47.245183,7.76361
8501562,Salvan,46.121612,7.021049
8506322,Rorschach Stadt,47.475448,9.489718
8505397,Caslano,45.977739,8.876282
8506137,Mammern,47.644158,8.913984
8504188,Sugiez,46.964128,7.119346
8501036,St-Prex,46.482305,6.455904
8503020,Zürich Hardbrücke,47.385195,8.517106
8504123,Corcelles-Nord,46.835253,6.960287
8504133,Cugy FR,46.816024,6.889162
8501013,Pont-Céard,46.287392,6.162672
8500302,Möhlin,47.56185,7.833854
135,Lötschberg-Basistunnel,46.356888,7.773846
8530260,Le Locle Le Chalet,47.05584,6.738835
8500329,Koblenz,47.600336,8.227023
8500289,Buchli,47.263632,7.678378
8508103,Rothrist,47.306448,7.879386
8507281,Grubenwald,46.579775,7.383129
8508263,Bigenthal,46.965606,7.623586
8500300,Kaiseraugst,47.538491,7.72412
8505401,Tenero,46.177469,8.850221
8506318,Rebstein-Marbach,47.392638,9.58675
8509352,Surovas,46.485634,9.905687
8507071,Seftigen,46.786847,7.540287
8507091,Liebefeld,46.930338,7.419199
8508327,Ewil Maxon,46.860724,8.218671
8501003,Satigny,46.214221,6.037509
8501466,Champéry-Village,46.181472,6.874855
8506389,Alter Zoll,47.36854,9.522076
8505066,Rigi Klösterli,47.042546,8.487134
8504316,Le Locle,47.057855,6.746153
8501103,Vallorbe,46.712398,6.370564
8504226,La Neuveville,47.062825,7.095219
8503103,Herrliberg-Feldmeilen,47.281824,8.612719
8502165,Zetzwil,47.282421,8.153013
8505408,Ranzo-S. Abbondio,46.116998,8.776532
8592052,"Lausanne, Grancy",46.514924,6.628873
8506206,Wil SG,47.46241,9.040983
8505205,Lavorgo,46.440898,8.839743
8508102,Murgenthal,47.265379,7.832099
8504069,Les Marches,46.602968,7.091272
8517377,Bibenlos-Sonnenhof,47.353792,8.350274
8504284,La Presta Mines d'asphalte,46.931119,6.654396
8501468,Aigle-Dépôt ASD,46.316357,6.980562
8500304,Eiken,47.533036,7.989776
8509175,Tavanasa-Breil/Brigels,46.754768,9.06243
8501165,Jouxtens-Mézery,46.548328,6.601694
8501575,Bovernier,46.078599,7.082262
8501154,Les Esserts-de-Rive,46.632027,6.260519
8508071,Schönbühl Shoppyland,47.018623,7.493623
8501471,Plambuit,46.327346,7.023983
8503230,Glarus,47.039921,9.071551
8507074,Kaufdorf,46.837888,7.501857
8505173,Tschamut-Selva,46.656748,8.709085
8516353,Baldegg Kloster,47.180608,8.280578
8506304,Mörschwil,47.474771,9.414372
8507480,Reichenbach im Kandertal,46.625228,7.690062
8501033,Rolle,46.462736,6.336408
8503287,Burghalden,47.208674,8.692695
8501673,Lax,46.387011,8.117149
8579238,"Lausanne, Sallaz",46.532814,6.646189
8507063,Worb Dorf,46.929986,7.562471
8502034,Beinwil am See,47.267219,8.202219
8504231,Les Deurres,46.985519,6.899149
8505112,Flüelen,46.901726,8.624293
8505400,Locarno,46.172428,8.801358
8508305,Brienz,46.754841,8.038936
8500194,Pré-Petitjean,47.27712,7.058813
8507002,Ostermundigen,46.956796,7.481487
8501689,Zermatt,46.024473,7.748296
8503063,Hinteregg,47.305738,8.684343
8506011,Eschlikon,47.46149,8.958514
8501685,St. Niklaus,46.17748,7.802115
8530783,Chez-le-Maître-Ecoles,46.599332,6.221959
8503413,Kaiserstuhl AG,47.566447,8.419148
8509257,Madulain,46.58708,9.938357
8504511,Boudry Littorail,46.949588,6.838953
8504236,Les Geneveys-sur-Coffrane,47.015086,6.853213
8504401,Fräschels,46.999122,7.206032
8504468,Ins Dorf,47.005578,7.106804
8506375,Teufen,47.390271,9.390066
8516450,Unterkulm Nord,47.314764,8.11304
8503226,Nieder- und Oberurnen,47.122363,9.062374
8508163,St. Urban,47.231761,7.835959
8505207,Bodio TI,46.380258,8.906559
8508063,Schalunen,47.110165,7.524163
8506298,Krummenau,47.248858,9.167942
8508394,Wolfenschiessen,46.90776,8.394681
8592128,"Lausanne, Vennes",46.541295,6.657616
8501503,Riddes,46.172502,7.21785
8503205,Au ZH,47.246817,8.643708
8500084,Hölstein,47.427425,7.771134
8505372,S. Nicolao,45.88638,8.988878
8509171,Ilanz,46.775359,9.207437
8501672,Fiesch,46.403137,8.132643
8501265,La Chiésaz,46.46951,6.882137
8502101,Kölliken,47.337293,8.026445
8507070,Uetendorf,46.774922,7.57284
8509186,Rothenbrunnen,46.767861,9.419609
8509198,Preda,46.588157,9.777318
8508086,Utzenstorf,47.129478,7.55365
8504215,Travers,46.942405,6.67656
8500027,Gelterkinden,47.465882,7.847652
8508206,Emmenmatt,46.948151,7.747289
8501105,Bretonnières,46.715046,6.474731
8505302,Melide,45.955723,8.948352
8502004,Dagmersellen,47.217552,7.979015
8505496,Verdasio,46.165219,8.649203
8503074,Neue Forch,47.325814,8.637845
8503525,Otelfingen Golfpark,47.455813,8.402097
8504314,La Chaux-de-Fonds,47.098644,6.826018
8502272,Bremgarten West,47.345582,8.337309
8530523,La Ruaz,46.25308,7.007731
8503402,Eglisau,47.572373,8.516535
8507364,Jungfraujoch,46.547468,7.982085
8500218,Olten,47.35193,7.907688
8509197,Bergün/Bravuogn,46.631069,9.746751
8502268,Zufikon Belvédère,47.357579,8.359234
8508182,Lotzwil,47.189469,7.788381
8503124,Aathal,47.335957,8.76561
8506313,Rheineck,47.466889,9.590904
8508316,Alpnach Dorf,46.940648,8.275244
8500320,Stein-Säckingen,47.541597,7.948822
8508155,Bannwil,47.244382,7.740358
8500196,Bollement,47.297168,7.123944
8501091,Vufflens-le-Château,46.524799,6.473183
8506287,Gübsensee,47.397902,9.316754
8501609,Brig,46.319422,7.988091
8505074,Rigi Kaltbad-First,47.044009,8.466699
8501446,Villars-sur-Ollon Golf,46.309119,7.075501
8504120,Moudon,46.668052,6.802504
8500191,Saignelégier,47.254673,6.994503
8506169,Wiesengrund,47.502177,8.948872
8501057,La Chèvrerie-Monteret,46.448461,6.183516
8507555,Wengwald,46.609188,7.913627
8503311,Rümlang,47.454067,8.532745
8501473,Les Planches (Aigle),46.355344,7.055275
8507075,Toffen,46.858472,7.496032
8508297,Menznau,47.083435,8.040928
8530303,Les Fumeaux,46.120493,7.052765
8506134,Mannenbach-Salenstein,47.67365,9.052779
8505175,Rueras,46.678234,8.754896
8506394,Roggwil-Berg,47.485587,9.392012
8505218,Taverne-Torricella,46.056686,8.930324
8502221,Birmensdorf ZH,47.357432,8.437543
8504019,Bressonnaz,46.653146,6.791262
8507096,Papiermühle,46.973906,7.477164
8506197,Kreuzlingen Bernrain,47.642117,9.163187
8505212,Castione-Arbedo,46.225258,9.041399
8503115,Schmerikon,47.225156,8.943367
8501156,Solliat-Golisse,46.614439,6.239035
8505072,Freibergen,47.030047,8.479733
8501116,Vufflens-la-Ville,46.576237,6.530762
8593775,Les Nicolets,46.354455,7.119552
8506022,Thalheim-Altikon,47.56962,8.757627
8504469,Nidau Beunden,47.119818,7.240307
8530335,Aigle-Hôpital,46.310468,6.966059
8509183,Reichenau-Tamins,46.823664,9.412551
8502005,Nebikon,47.192374,7.977441
8508202,Konolfingen,46.880695,7.621354
8530011,Les Coeudres-Est,47.028766,6.789469
8501365,Crêt-d'y-Bau,46.435149,6.955381
8503233,Schwanden GL,46.996849,9.077447
8504060,Bossonnens,46.525768,6.853237
8504303,La Heutte,47.189484,7.225388
8503051,Zürich Binz,47.362632,8.518424
8509412,Mels,47.053744,9.417745
8504237,Les Hauts-Geneveys,47.047171,6.874668
8504325,Colombier NE Littorail,46.965871,6.865419
8501218,"Ecublens VD, Epenex",46.537717,6.573582
8501084,Le Manège,46.559105,6.432179
8509000,Chur,46.85308,9.528925
8517485,Sur-le-Buis,46.353303,7.100643
8509266,Ardez,46.773546,10.201048
8504186,Münchenwiler-Courgevaux,46.911772,7.114919
8501157,Sentier-Orient,46.605766,6.231395
8504232,Corcelles-Peseux,46.983341,6.883805
8507299,Lattigen bei Spiez,46.691183,7.650587
8508201,Tägertschi,46.882281,7.580834
8504134,Payerne,46.819639,6.939879
8501572,Martigny-Bourg,46.092435,7.068479
8504470,Ipsach Herdi,47.112368,7.228925
8516354,Wolhusen Weid,47.065183,8.071106
8501385,Sendy-Sollard,46.446638,6.92908
8509267,Ftan Baraigla,46.787653,10.25799
8506008,Wila,47.417771,8.848467
176,Zimmerberg-Basistunnel,47.351679,8.521961
8501168,Vernand-Camarès,46.570931,6.604801
8501727,La Clairière,46.288341,7.068011
8505498,Borgnone-Cadanza,46.15853,8.622501
8503288,Wollerau,47.195435,8.724997
8503506,Killwangen-Spreitenbach,47.433329,8.354194
8506181,Bronschhofen,47.475442,9.034662
8501175,Sugnens,46.654845,6.665757
8518243,Beringerfeld,47.695305,8.592641
8506195,Siegershausen,47.610917,9.168238
8501012,Creux-de-Genthod,46.26376,6.16132
8509168,Versam-Safien,46.80738,9.310299
8507066,Stettlen,46.956826,7.524092
8507286,Ringoldingen,46.657505,7.524629
8501107,Arnex,46.698067,6.518903
8506373,Niederteufen,47.392157,9.367798
8506283,Urnäsch,47.318389,9.285985
8504294,Vuiteboeuf,46.803829,6.553607
8504487,Rosshäusern,46.934335,7.296859
8506299,Nesslau-Neu St. Johann,47.22666,9.197798
8503009,Zürich Wollishofen,47.34744,8.533588
8502229,Urdorf Weihermatt,47.380971,8.43033
8501370,Glion,46.431776,6.924732
8504030,Villars-sur-Glâne,46.789826,7.116388
8502121,Walterswil-Striegel,47.319923,7.963186
8503284,Biberbrugg,47.156374,8.722699
8502026,Gelfingen,47.213555,8.264806
8502178,Obermuhen,47.328937,8.055617
8504288,Buttes,46.888482,6.553865
8594231,Areuse Les Isles Littorail,46.954226,6.848518
8506308,Arbon,47.510586,9.433338
8508313,Sachseln,46.870961,8.238298
8508089,Biberist Ost,47.180627,7.566345
8504128,Murten/Morat,46.925392,7.115375
8501694,Gornergrat,45.983319,7.782206
8505499,Camedo,46.154871,8.611004
8501506,Sion,46.227546,7.359191
8502196,Unterentfelden Post,47.368672,8.044439
8501509,Sierre/Siders,46.292115,7.53283
8507288,Eifeld,46.68392,7.642272
8502275,Widen Heinrüti,47.362013,8.354783
8502197,Hirschthal,47.319886,8.052814
8509353,Morteratsch,46.450718,9.940414
8503415,Rümikon AG,47.565384,8.373653
8506185,Oppikon,47.552064,9.062091
8501123,Villette VD,46.495333,6.707284
8503234,Nidfurn-Haslen,46.985897,9.059258
8504219,Auvernier,46.979632,6.877706
8530709,"Neuchâtel, Champ-Bougin",46.984555,6.912277
8504021,Vauderens,46.621449,6.850031
8504227,Ligerz,47.083761,7.135144
8503211,Altendorf,47.193967,8.822888
8501507,St-Léonard,46.251483,7.41957
8505006,Schwyz,47.026395,8.632139
8503126,Nänikon-Greifensee,47.369359,8.686399
8507297,Oey-Diemtigen,46.659988,7.579325
8505003,Immensee,47.091614,8.46266
8506301,St. Gallen Bruggen,47.407201,9.329645
8508184,Lindenholz,47.154607,7.790528
8502206,Baar,47.195363,8.523255
8506045,Hettlingen,47.545438,8.694813
8500200,Pieterlen,47.171435,7.34019
8530801,Aareschlucht Ost MIB,46.712001,8.217895
8530430,Route de Morgins,46.231796,6.920272
8507496,Faulensee,46.67376,7.697906
8506118,Triboltingen,47.662901,9.108749
8503429,Schlattingen,47.666627,8.770414
8501011,Les Tuileries,46.249944,6.14734
8505071,Grubisbalm,47.026211,8.483131
8501092,Bussy-Chardonney,46.526773,6.446519
8502111,Däniken,47.356387,7.978753
8501117,Bussigny,46.54758,6.551819
8506047,Andelfingen,47.593759,8.677979
8503303,Illnau,47.40882,8.722703
8504482,Gampelen,47.00936,7.05644
8530813,Zürich Kreuzplatz,47.364875,8.554083
8507291,Weissenbach,46.603527,7.374372
8500113,Laufen,47.419339,7.50263
8503060,Esslingen,47.287866,8.709693
8506319,Altstätten SG,47.37423,9.55651
8507296,Erlenbach im Simmental,46.658989,7.556092
8506193,Kehlhof,47.572185,9.169768
8501087,Mauraz,46.584912,6.429728
8501580,Etiez,46.08281,7.162564
8502216,Benzenschwil,47.246844,8.365596
8501023,Coppet,46.317381,6.187832
8517484,Aigle-Parc Aventure,46.3153,6.986231
8500199,Combe-Tabeillon,47.313798,7.158444
8504304,Sonceboz-Sombeval,47.195139,7.168754
8593772,Gryon-Chalméry,46.273642,7.051921
8530012,Petit-Martel-Est,47.013675,6.765242
8509268,Scuol-Tarasp,46.793776,10.286214
8507378,Grütschalp,46.596516,7.890874
8507088,Lanzenhäusern,46.841834,7.34713
8503401,Glattfelden,47.548558,8.524036
8507380,Grindelwald,46.624369,8.03331
8504310,St-Imier,47.151699,7.001214
8502007,Sursee,47.170789,8.097877
8505492,Verscio,46.184579,8.729721
8501303,Villeneuve,46.398366,6.926999
8530246,Foyer Dents-du-Midi,46.256391,7.029855
8503202,Thalwil,47.295975,8.564755
8501021,Genthod-Bellevue,46.256731,6.153963
8509363,Li Curt,46.311187,10.063212
8504204,Vaumarcus,46.877636,6.757582
8502218,Sins,47.188309,8.397807
8505402,Gordola,46.179046,8.865766
8515994,Zug Fridbach,47.156578,8.512275
8508250,Schwäbis,46.762652,7.619228
8530812,Zürich Hegibachplatz,47.36169,8.560623
8505390,Serocca,46.008521,8.904568
8501304,Roche VD,46.358686,6.927049
8530811,Zürich Balgrist,47.354578,8.57502
8504068,Epagny,46.604541,7.070992
8502030,Seon,47.346141,8.158789
8502189,Gränichen Töndler,47.363996,8.092044
8501114,Eclépens,46.657185,6.55242
8500176,Le Boéchet,47.19424,6.922098
8506376,Steigbach,47.377003,9.404812
8501378,Allières,46.469815,7.007891
8501669,Blitzingen,46.444665,8.204972
8509051,Haldenstein,46.876984,9.533122
8518690,Niederbipp Industrie,47.278644,7.703161
8507279,Lenk im Simmental,46.458582,7.443522
8504224,Cressier NE,47.05194,7.039526
8504510,Auvernier Littorail,46.974231,6.878919
8502166,Leimbach AG,47.272713,8.167857
8501098,Montricher,46.59632,6.39305
8502271,Wohlen Oberdorf,47.346894,8.28626
8505065,Fruttli,47.038397,8.504975
8502160,Gränichen,47.361664,8.09878
8500088,Oberdorf BL Winkelweg,47.39714,7.748824
8506182,Bettwiesen,47.498617,9.020769
8504206,Bevaix,46.929688,6.811679
8503112,Kempraten,47.238393,8.814291
8503004,Zürich Tiefenbrunnen,47.350124,8.561372
8509071,Davos Wolfgang,46.831966,9.854553
8501042,Etoy,46.47516,6.427139
8505471,Locarno S. Antonio,46.168923,8.786042
8500275,Bei den Weihern,47.228389,7.566577
8587727,Les Ripes,46.592185,6.608061
8508068,Biberist RBS,47.182924,7.555374
8507094,Uetendorf Allmend,46.773122,7.594884
8507273,Oeschseite,46.531368,7.352288
8504129,Galmiz,46.950869,7.153198
8509417,Murg,47.113177,9.215024
8506006,Rämismühle-Zell,47.44154,8.819118
8505406,Magadino-Vira,46.145323,8.850179
8503087,Zürich Saalsporthalle,47.357407,8.522143
8502011,Oberkirch LU,47.155232,8.114222
8503290,Biberegg,47.093313,8.66913
8502231,Zug Oberwil,47.147676,8.509921
8506217,Sulgen,47.5388,9.183678
8502163,Oberkulm,47.299076,8.124041
8500122,Bassecourt,47.336682,7.24684
8502006,Wauwil,47.183852,8.019008
8593467,Pont de Fayot,46.219017,6.903741
8505174,Dieni,46.669934,8.742866
8501166,Romanel-sur-Lausanne,46.562462,6.603171
8509060,Schiers,46.967994,9.688356
8501199,La Roulaz,46.331319,7.001486
8502105,Othmarsingen,47.407427,8.214788
8502031,Hallwil,47.328636,8.175937
8506380,Hirschberg,47.331313,9.422833
8507093,Kehrsatz Nord,46.915837,7.466109
8500102,Malleray-Bévilard,47.238705,7.275932
8518475,Mendrisio S. Martino,45.877652,8.983028
8501488,Bévieux,46.258986,7.030886
8509181,Domat/Ems,46.833141,9.453164
8507376,Grindelwald Grund,46.622648,8.023329
8502209,Oberrieden Dorf,47.276724,8.577633
8589523,"Lausanne, Bessières",46.520713,6.637075
8503529,Würenlos,47.445759,8.357643
8500022,Frenkendorf-Füllinsdorf,47.501458,7.719091
8530711,Colombier NE Allées Littorail,46.968068,6.869509
8502277,Rudolfstetten,47.369501,8.38118
8502177,Schöftland Nordweg,47.311106,8.051219
8503307,Bassersdorf,47.438564,8.626199
8509259,S-chanf,46.611939,9.981823
8517131,Pratteln Salina Raurica,47.530575,7.709869
8504136,Cousset,46.818601,6.977484
8506135,Berlingen,47.673211,9.022001
8500172,La Chaux-des-Breuleux,47.220364,7.025194
8503238,Rüti GL,46.934548,9.013025
136,Lötschberg-Bergstrecke,46.433756,7.717215
8507000,Bern,46.948825,7.439118
8501127,St-Saphorin,46.472586,6.79703
8502200,Ebikon,47.084258,8.342345
8507271,Schönried,46.504542,7.291101
8503105,Uetikon,47.25903,8.678774
8506351,Ruderbach,47.461109,9.595433
8504419,Biel Mett,47.144714,7.272475
8501064,Bassins,46.460553,6.222318
8508204,Bowil,46.90004,7.698049
8501674,Grengiols,46.375213,8.091683
8505209,Biasca,46.351983,8.974167
8506205,Bazenheid,47.410129,9.069041
8500010,Basel SBB,47.547405,7.589551
8014487,Herblingen,47.717003,8.664127
8503223,Reichenburg,47.172696,8.982302
8508350,Brienz BRB,46.755214,8.038089
8501169,Cheseaux,46.584343,6.605964
8509258,Zuoz,46.599954,9.961463
8501424,Vouvry,46.337292,6.897574
8505176,Sedrun,46.681067,8.769776
8500159,Grenchen Nord,47.191804,7.389462
8504020,Oron,46.572534,6.837102
8501377,Les Avants,46.453808,6.94333
8509174,Waltensburg/Vuorz,46.76956,9.120152
8503078,Waldburg,47.345476,8.593024
8501214,"Ecublens VD, EPFL",46.522196,6.566141
8506200,Wattwil,47.299479,9.086463
8508351,Planalp,46.772373,8.019845
8500104,Court,47.240588,7.342095
8507068,Bolligen,46.969544,7.49741
8505216,Rivera-Bironico,46.12398,8.925281
8504140,Muntelier-Löwenberg,46.937972,7.133252
8500205,Bellach,47.208902,7.507859
8504089,Broc-Fabrique,46.605423,7.109333
8503317,Schöfflisdorf-Oberweningen,47.497971,8.411793
8501209,"Lausanne, Malley",46.524212,6.603306
8501194,Les Granges (Orbe),46.720962,6.541482
8505075,Rigi Staffelhöhe,47.048094,8.4645
8501464,Troistorrents,46.228285,6.915821
8530261,Bois-de-Chexbres,46.473274,6.901538
8503293,Grüenfeld,47.198289,8.687278
8504184,Courtepin,46.86777,7.122504
8508062,Büren zum Hof,47.095948,7.518806
8530708,"Neuchâtel, Evole",46.989678,6.923374
8506109,Amriswil,47.550448,9.302217
8592017,"Lausanne, CHUV",46.526403,6.641487
8508323,Sarnen Nord,46.900184,8.249114
8503208,Bäch,47.20098,8.727163
8508084,Kirchberg-Alchenflüh,47.083494,7.58014
8509185,Rhäzüns,46.799679,9.399263
8593774,La Faverge,46.354926,7.147131
8503423,Neuhausen,47.683135,8.624914
8530760,Aareschlucht West,46.721253,8.198578
8503072,Neuhaus bei Hinteregg,47.313346,8.672008
8502182,Unterentfelden Oberdorf,47.364736,8.042011
8502009,Sempach-Neuenkirch,47.116053,8.195967
8509173,Rueun,46.774698,9.145614
8504067,La Tour-Village,46.608531,7.064242
8506044,Winterthur Töss,47.489808,8.709291
8502205,Walchwil,47.098683,8.516925
8501262,Hauteville,46.466255,6.860898
8506100,Frauenfeld,47.55816,8.896538
8500179,La Cibourg,47.122118,6.883655
8504402,Kallnach,47.025515,7.235186
8504061,Remaufens,46.523878,6.876182
8504217,Champ-du-Moulin,46.959903,6.774984
8504025,Chénens,46.749201,7.000432
8509418,Mühlehorn,47.117841,9.173002
8500162,Tramelan-Dessous,47.222436,7.112675
8502191,Binzenhof,47.38321,8.050577
8509073,Davos Platz,46.791467,9.820725
8502120,Küngoldingen,47.301966,7.941694
8502188,Zufikon Hammergut,47.355907,8.354599
8501482,Leysin-Feydey,46.344443,7.008369
8501493,La Barboleuse,46.282745,7.070501
8501089,Villars-Bozon,46.610449,6.402359
8500301,Rheinfelden,47.55121,7.792153
8501202,Burier,46.447877,6.877115
8501164,Cery-Fleur-de-Lys,46.544574,6.605012
8507085,Gasel,46.900937,7.400692
8507386,Breitlauenen,46.659844,7.895584
8501487,Bex-Place-du-Marché,46.25091,7.01444
8504103,Flamatt,46.888485,7.319562
8503130,Hinwil,47.300051,8.839697
8516351,Kriens Mattenhof,47.026616,8.302368
8503425,Feuerthalen,47.692164,8.645952
8503129,Wallisellen,47.412717,8.591911
8508085,Aefligen,47.095499,7.559505
8500309,Brugg AG,47.480853,8.208827
8503224,Bilten,47.152191,9.029899
8507065,Boll-Utzigen,46.953614,7.547286
8501176,Fey,46.674316,6.685081
8507076,Belp,46.888884,7.498635
8504490,Zihlbrücke,47.009271,7.030573
8501502,Saxon,46.149377,7.173434
8501260,Gilamont,46.471412,6.85264
8503414,Mellikon,47.568484,8.352497
8506001,Winterthur Grüze,47.498751,8.751037
8508256,Stalden i.E.,46.87095,7.622948
8507067,Deisswil,46.957211,7.5142
8592061,"Lausanne, Jordils",46.50993,6.627436
8501479,Les Diablerets,46.351158,7.155024
8504022,Siviriez,46.659256,6.885352
8501361,Toveyre,46.427897,6.928476
8503118,Benken SG,47.204457,9.008631
8506138,Eschenz,47.645411,8.876536
8506121,Romanshorn,47.565527,9.379362
8500201,Lengnau,47.179424,7.366546
8501605,Visp,46.294025,7.881458
8509414,Walenstadt,47.119872,9.312971
8502227,Steinhausen,47.19458,8.478422
8508087,Wiler,47.152107,7.555967
8502204,Zug,47.173624,8.515295
8502001,Zofingen,47.288045,7.943097
8504488,Riedbach,46.941148,7.334049
8504065,Vaulruz-Sud,46.619209,6.989973
8500204,Selzach,47.200619,7.456629
8501213,"Ecublens VD, UNIL-Sorge",46.522451,6.573579
8505306,Balerna,45.846757,9.005034
8501172,Assens,46.613147,6.620532
8505373,Bellavista,45.911114,9.00114
8503300,Kempten,47.332037,8.804705
8508293,Zell,47.136742,7.926527
8502024,Hochdorf,47.166975,8.288686
8506384,Schachen (Gais),47.361522,9.477256
8592086,"Lausanne, Ouchy-Olympique",46.507469,6.626639
8508080,Oberburg,47.039617,7.62963
8500114,Zwingen,47.433792,7.530457
8505472,Solduno,46.169536,8.777653
8508215,Wolhusen,47.055484,8.079745
8508311,Kaiserstuhl OW,46.814367,8.175505
8502179,Mittelmuhen,47.333562,8.055366
8503318,Niederweningen Dorf,47.505907,8.381049
8505011,Merlischachen,47.067656,8.409039
8509153,St. Peter-Molinis,46.829148,9.653851
8501461,Ollon,46.296823,6.993108
8507381,Schwendi bei Grindelwald,46.630478,8.003068
8504063,Semsales,46.573343,6.926932
8500190,Les Emibois,47.232348,6.985313
8509180,Felsberg,46.843099,9.48126
8508058,Urtenen,47.028892,7.500645
8502028,Emmenbrücke Gersag,47.078314,8.276799
8530378,Les Neys,46.236018,6.924795
8504392,Les Brenets,47.067203,6.707379
8591315,"Zürich, Rehalp",47.351027,8.582979
8509254,Punt Muragl,46.50968,9.881194
8503426,Langwiesen,47.683449,8.662296
8504027,Neyruz,46.766046,7.06503
8504029,Matran,46.78893,7.096329
8500292,Klus,47.303479,7.694754
8506215,Bischofszell Nord,47.500417,9.234019
8501453,La Cour,46.194232,6.886692
8509062,Jenaz,46.92975,9.718321
8503294,Riedmatt SZ,47.196758,8.712015
8507272,Saanenmöser,46.517611,7.311719
8530800,Innertkirchen Unterwasser,46.708104,8.226078
8509178,Sumvitg-Cumpadials,46.724078,8.931326
8503528,Otelfingen,47.454935,8.387507
8530832,Pied du barrage,46.065875,6.935292
8515995,Cham Alpenblick,47.182283,8.471441
8501121,Pully,46.510919,6.659462
8502211,Hendschiken,47.389425,8.207373
8508205,Signau,46.919629,7.72545
8507292,Boltigen,46.627373,7.390247
8501426,Bouveret,46.38581,6.853241
8501045,Denges-Echandens,46.529121,6.540508
8503201,Rüschlikon,47.307133,8.555151
8501497,Col-de-Soud,46.304943,7.069546
8502112,Schönenwerd SO,47.371423,8.000155
8509059,Grüsch,46.980493,9.645779
8502186,Dietikon Stoffelbach,47.393407,8.398942
8501688,Täsch,46.067459,7.774515
8502162,Unterkulm,47.310129,8.115124
8503100,Zollikon,47.337332,8.569717
8508056,Moosseedorf,47.016145,7.484848
8502168,Reinach AG,47.250109,8.183335
8506043,Winterthur Wülflingen,47.506433,8.680908
8504301,Frinvillier-Taubenloch,47.169445,7.25752
8506004,Kollbrunn,47.458325,8.773993
8501001,La Plaine,46.17866,5.999996
8501499,Col-de-Bretaye,46.321931,7.073624
8506212,Hauptwil,47.476861,9.251575
8517481,S-chanf Marathon,46.619762,9.996991
8515992,Baar Neufeld,47.188488,8.517758
8507064,Vechigen,46.946759,7.556454
8501604,Raron,46.306274,7.801507
8503501,Döttingen,47.575264,8.256343
8516187,Zug Schutzengel,47.173726,8.507224
142,Simplon,46.276342,8.091198
8508218,Malters,47.038577,8.181952
8505163,Realp,46.598634,8.503458
8592028,"Lausanne, Délices",46.512022,6.628043
8501167,Le Lussex,46.556868,6.60091
8508208,Trubschachen,46.921693,7.846131
8503305,Effretikon,47.425811,8.686662
8503292,Altmatt,47.131649,8.696124
8503285,Schindellegi-Feusisberg,47.176403,8.709367
8503110,Rapperswil,47.224888,8.81673
8502169,Menziken,47.240922,8.189309
8501096,Bière,46.53743,6.336918
8501398,Saanen,46.488576,7.260278
8509154,Peist,46.829504,9.671632
8060978,Weil am Rhein Gartenstadt,47.586825,7.636695
8506300,St. Gallen Winkeln,47.403926,9.300839
8507494,Därligen,46.659762,7.814735
8501066,Genolier,46.436232,6.214575
8505398,Ponte Tresa,45.969995,8.860479
8014483,Neunkirch,47.689151,8.495384
8503207,Richterswil,47.208368,8.70746
8508318,Hergiswil,46.982613,8.310165
8501573,Martigny-Croix,46.086564,7.058616
8501288,Les Pléiades,46.483353,6.909942
8501564,Le Trétien,46.102336,6.9977
8505114,Erstfeld,46.820341,8.650442
8506017,Wiesendangen,47.525541,8.776014
8509413,Flums,47.096613,9.347916
8504474,Mörigen,47.085649,7.212226
8507372,Wengen,46.604902,7.921003
8504403,Bargen,47.040157,7.261169
8506358,St. Gallen Spisertor,47.424643,9.379713
8503400,Bülach,47.523942,8.536188
8503286,Samstagern,47.191547,8.685972
8500121,Courfaivre,47.335074,7.291155
8501484,Aigle-Dépôt,46.318288,6.975378
8508492,Luzern Bahnhofquai,47.051169,8.31016
8504079,La Tour-de-Trême,46.605616,7.061443
8518924,Neuhausen Rheinfall,47.679649,8.617458
8502167,Reinach AG Nord,47.258031,8.180882
8501035,Allaman,46.47574,6.399703
8503237,Diesbach-Betschwanden,46.946177,9.024362
8502195,Muhen,47.339526,8.053609
8506396,Muolen,47.51762,9.337081
8501565,Finhaut,46.082324,6.976377
8503204,Horgen,47.261483,8.596904
8501170,Bel-Air LEB,46.578673,6.605529
8501498,Bouquetins,46.316395,7.07235
8501099,L'Isle,46.617258,6.411184
8502161,Teufenthal AG,47.329408,8.114469
8509351,Punt Muragl Staz,46.507348,9.880411
8502000,Aarburg-Oftringen,47.320267,7.908203
8504077,Gruyères,46.582608,7.073255
8505177,Bugnei,46.682355,8.786463
8530614,Furka DFB,46.576208,8.428457
8500093,Hölstein Weidbächli,47.41883,7.763474
8506293,Mogelsberg,47.363744,9.142605
8500126,Porrentruy,47.42091,7.080074
8508267,Ramsei,46.996764,7.710203
8502224,Affoltern am Albis,47.276065,8.446582
8506216,Kradolf,47.52472,9.201557
8593776,Plan Morier,46.353573,7.12921
8501282,Prélaz-sur-Blonay,46.468822,6.897937
8516270,Arbon Seemoosriet,47.52152,9.424292
8500127,Courtemaîche,47.455863,7.055371
8500120,Courtételle,47.342823,7.31793
8509400,Oberriet,47.323479,9.571367
8502003,Reiden,47.241463,7.968756
8506309,Egnach,47.543992,9.383
8501211,"Chavannes-p.-R., UNIL-Dorigny",46.524217,6.584707
8506105,Weinfelden,47.566225,9.106346
8501483,Leysin-Grand-Hôtel,46.345551,7.006437
8506290,Herisau,47.390168,9.276803
8505394,Bioggio,46.012109,8.908886
8530710,"Neuchâtel, Serrières Ruau",46.980085,6.897087
8507278,Boden,46.470771,7.435386
8014482,Wilchingen-Hallau,47.679448,8.46386
8501395,Les Granges-Gérignoz,46.473933,7.155733
8504483,Ins,46.999827,7.099555
8508302,Niederried,46.716425,7.928669
8501360,Montreux-Les Planches,46.433092,6.917563
8509169,Valendas-Sagogn,46.791794,9.275459
8507270,Gruben,46.490539,7.280133
8507287,Burgholz,46.666484,7.60558
8503055,Uitikon Waldegg,47.365836,8.46598
8501366,Paccot,46.437762,6.962696
8509182,Ems Werk,46.828645,9.430393
8503065,Forch,47.32534,8.647968
8508158,Scharnageln,47.263107,7.700785
8506286,Appenzell,47.328287,9.408826
8504064,La Verrerie,46.58752,6.924879
8500286,Attiswil,47.246406,7.613868
8506210,Gossau SG,47.41183,9.253032
8505202,Ambrì-Piotta,46.510617,8.690151
8501481,Leysin-Village,46.339261,7.006059
8503313,Niederglatt,47.487469,8.503296
8508306,Brienzwiler,46.745652,8.09063
8501505,Ardon,46.208585,7.270944
8507077,Kehrsatz,46.908819,7.472353
8503128,Dübendorf,47.400076,8.623407
8505407,S. Nazzaro,46.135166,8.807053
8505000,Luzern,47.05017,8.31017
8503424,Schaffhausen,47.698282,8.632728
8508265,Hasle-Rüegsau,47.016022,7.655627
8501393,La Chaudanne-Les Moulins,46.466116,7.096904
8501667,Gluringen,46.462782,8.233907
8508310,Lungern,46.78635,8.163558
8502300,Zug Postplatz,47.168274,8.516916
8504139,Belfaux CFF,46.816918,7.106227
8508088,Gerlafingen,47.169745,7.565185
8504181,Givisiez,46.816711,7.125333
8501280,St-Légier-Gare,46.47053,6.871932
8500171,Les Reussilles,47.224238,7.083444
8506184,Märwil,47.533127,9.069217
8504311,Sonvilier,47.141327,6.969344
8502222,Bonstetten-Wettswil,47.325896,8.468175
8501163,Prilly-Chasseur,46.539644,6.607435
8500116,Duggingen,47.453435,7.603448
8509188,Cazis,46.719874,9.432945
8518749,Lyss Grien,47.073039,7.296621
8588122,Landschlacht,47.628896,9.24694
8507375,Alpiglen,46.600105,8.001903
8501380,Montreux-Collège,46.436101,6.91272
8509155,Langwies GR,46.819329,9.707143
8509055,Igis,46.949829,9.564754
8500032,Sommerau,47.439012,7.851463
8505002,Küssnacht am Rigi,47.083594,8.433494
8506016,Oberwinterthur,47.507919,8.76037
8501002,Russin,46.187772,6.017554
8505494,Intragna,46.177665,8.702269
8501388,Les Combes,46.477472,7.171835
8504062,Châtel-St-Denis,46.526138,6.898745
8501207,"Lausanne, Montelly",46.521822,6.61356
8515296,Brig Bahnhofplatz,46.319007,7.986386
8505005,Steinen,47.047664,8.607435
8506035,Schottikon,47.500116,8.811705
8502119,Lenzburg,47.391194,8.170378
8505063,Arth-Goldau RB,47.047381,8.547098
8505018,Meggen Zentrum,47.045043,8.374124
8501031,Gland,46.419976,6.269137
8501215,"Ecublens VD, Bassenges",46.524586,6.564591
8508317,Alpnachstad,46.95504,8.277832
8501037,Morges,46.511092,6.493964
8500280,Solothurn Baseltor,47.209993,7.54189
8506007,Turbenthal,47.437384,8.843803
8509250,Bever,46.549907,9.888476
8504307,Courtelary,47.17562,7.068796
8504296,Six-Fontaines,46.774064,6.498853
8500287,Wiedlisbach,47.252883,7.646096
8506292,Degersheim,47.372477,9.200281
8508183,Madiswil,47.166672,7.795645
8505007,Brunnen,46.999175,8.610048
8504122,Granges-Marnand,46.758836,6.894289
8501201,La Tour-de-Peilz,46.455444,6.85953
8508051,Bern Felsenau,46.968497,7.444243
8506049,Dachsen,47.667085,8.613797
8506170,Münchwilen Pflegeheim,47.481595,8.991719
8508193,Aarwangen Vorstadt,47.237497,7.771302
8501661,Oberwald,46.53085,8.34294
8501457,Monthey-Hôpital,46.251877,6.940764
8502225,Mettmenstetten,47.244072,8.457365
8503200,Kilchberg,47.324428,8.547999
8506305,Goldach,47.473798,9.46699
8503282,Rothenthurm,47.105794,8.67466
8506280,Wilen,47.375507,9.279423
8501083,Reverolle,46.540418,6.430976
8506194,Berg,47.582253,9.17451
8509061,Furna,46.939781,9.708945
8508168,Roggwil Buchägerten,47.235887,7.831658
8504104,Thörishaus Station,46.90462,7.357023
8506177,Rosental,47.492277,8.975242
8502100,Safenwil,47.321753,7.983508
8501007,Vernier,46.22071,6.093894
8506364,Vögelinsegg,47.416072,9.43604
8508203,Zäziwil,46.899745,7.662876
8508254,Brenzikofen,46.818319,7.610687
8506388,Warmesberg,47.365364,9.513555
8504017,Châtillens,46.570528,6.815484
8060979,Weil am Rhein Pfädlistrasse,47.586809,7.646001
8014485,Neuhausen Bad Bf,47.682615,8.612186
8506042,Pfungen,47.516034,8.646611
8501686,Herbriggen,46.132148,7.791643
8508006,Wynigen,47.105165,7.663496
8504203,Concise,46.85087,6.723161
8508186,Rohrbach,47.137138,7.813824
8503016,Zürich Flughafen,47.450383,8.562386
8502220,Urdorf,47.390882,8.434713
8506198,Tägerwilen Dorf,47.653719,9.139547
8506005,Rikon,47.445004,8.796307
8507382,Burglauenen,46.635919,7.975334
8507095,Schwarzwasserbrücke,46.862804,7.36236
8503136,Fischenthal,47.333299,8.923274
8505165,Andermatt,46.636893,8.593274
8501118,Renens VD,46.537029,6.578938
8504007,Moreillon,46.508388,6.785648
8501485,Fontanney,46.318316,6.982311
8504411,Münchenbuchsee,47.02137,7.451942
8500206,Solothurn West,47.206709,7.531945
8504132,Estavayer-le-Lac,46.844497,6.842958
8501375,Chernex,46.445922,6.910087
8504141,Henniez,46.734996,6.870102
8504192,Neuenegg,46.894139,7.299853
8501636,Eyholz,46.29678,7.916301
8506312,Staad,47.480772,9.53652
8505300,Lugano,46.005506,8.946874
8509262,Zernez,46.697668,10.089941
8507275,Stöckli,46.516817,7.388407
8504285,Couvet,46.923351,6.635668
8501578,Orsières,46.027737,7.143808
8506392,St. Gallen Haggen,47.407835,9.338136
8504413,Suberg-Grossaffoltern,47.058773,7.33899
8504101,Düdingen,46.851043,7.189748
8504074,Grandvillard,46.543799,7.072944
8503059,Zürich Stadelhofen FB,47.366353,8.54813
8503502,Siggenthal-Würenlingen,47.517922,8.240153
8506202,Dietfurt,47.34455,9.0783
8506278,Seebleiche,47.477519,9.516353
8501384,Sonzier,46.439046,6.921214
8501014,Mies,46.299876,6.16957
8501472,Exergillod,46.337105,7.038494
8500267,Crémines,47.285574,7.435309
8501161,Montétan,46.53033,6.613183
8501104,Le Day,46.717281,6.400513
8504467,Brüttelen,47.020596,7.148288
8508303,Oberried am Brienzersee,46.736558,7.958919
8502194,Oberentfelden Engelplatz,47.356167,8.046613
8501459,St-Triphon-Village,46.30207,6.975802
8500135,Pontenet,47.238842,7.254153
8503527,Buchs-Dällikon,47.453398,8.435578
8503123,Wetzikon,47.318034,8.792269
8504016,Palézieux-Village,46.557239,6.82834
8504075,Enney,46.565401,7.08524
8508395,Innertkirchen Grimseltor,46.705579,8.229585
8508216,Werthenstein,47.057022,8.10185
8590442,"Lausanne, Riponne-M. Béjart",46.522868,6.632664
8501475,Les Echenards,46.355351,7.085065
8504185,Cressier FR,46.90018,7.149715
8508456,Pilatus Kulm,46.979432,8.255948
8502187,Rudolfstetten Hofacker,47.36474,8.377032
8595245,Areuse Littorail,46.954545,6.85281
8505113,Altdorf,46.875741,8.631565
8506294,Brunnadern-Neckertal,47.33731,9.129876
8505069,Rigi Kulm,47.055176,8.485236
8502027,Hitzkirch,47.222668,8.251981
8504385,La Sagne,47.040135,6.802266
8504228,Twann,47.093656,7.156491
8500274,Feldbrunnen,47.220665,7.555852
8530713,"Boudry, Tuilière",46.951462,6.84286
8506174,Matzingen,47.520474,8.932965
8507384,Lauterbrunnen,46.598434,7.90809
8500178,La Ferrière,47.142688,6.894529
8502180,Muhen Nord,47.343596,8.052624
8508053,Steinibach,46.983329,7.45752
8506179,Lüdem,47.541941,8.90235
8501115,Cossonay-Penthalaz,46.606003,6.523683
8506303,St. Gallen St. Fiden,47.434543,9.393427
8503139,Tann-Dürnten,47.268371,8.852704
8501302,Veytaux-Chillon,46.417612,6.927858
8501635,Gletsch,46.561306,8.361486
8504480,St-Blaise-Lac,47.012094,6.98468
8503062,Egg,47.301507,8.689613
8519370,Bernina Diavolezza,46.441794,9.982303
8507550,Allmend,46.594033,7.931972
8500125,Courgenay,47.405218,7.124191
8504486,Gümmenen,46.942174,7.2344
8504466,Siselen-Finsterhennen,47.031152,7.180383
8501492,Gryon,46.273579,7.059718
8501392,Rossinière,46.464814,7.083243
8500221,Büren an der Aare,47.13815,7.371229
8508161,Kaltenherberg,47.237215,7.79943
8501261,Clies,46.467753,6.854919
8503011,Zürich Wiedikon,47.371472,8.523462
8504078,Le Pâquier-Montbarry,46.594681,7.059693
8504144,Yverdon-Champ Pittet,46.78214,6.662317
8506361,St. Gallen Notkersegg,47.425343,9.403231
8502213,Wohlen AG,47.348462,8.269781
8501173,Echallens,46.639501,6.63254
8501391,La Tine,46.467167,7.046579
8530262,St-Eloi,46.720298,6.532572
8500109,Delémont,47.362001,7.350053
8500273,St. Katharinen,47.216111,7.549783
8509366,Brusio,46.259307,10.125279
8501448,Champéry,46.174951,6.871504
8506209,Flawil,47.41519,9.189766
8501264,St-Légier-Village,46.471012,6.876575
8504292,Valeyres-sous-Montagny,46.79685,6.611358
8508255,Oberdiessbach,46.839537,7.618043
8504142,Trey,46.779953,6.916244
8503067,Zollikerberg,47.346056,8.6034
8507388,Wilderswil,46.665703,7.869474
8500136,Basel Dreispitz,47.537862,7.608941
8509358,Cavaglia,46.364317,10.044146
8530463,En Charnet,46.197014,6.887026
8503135,Steg,47.353854,8.932358
8504028,Rosé,46.782624,7.061968
8503053,Zürich Schweighof,47.364988,8.503047
8517336,Luzern Verkehrshaus,47.053928,8.33728
8505404,Cadenazzo,46.152626,8.941688
8504461,Nidau,47.124013,7.242176
8501159,Le Brassus,46.585781,6.214291
8503505,Wettingen,47.459637,8.315986
8504381,La Chaux-de-Fonds-Grenier,47.099737,6.833699
8501577,La Douay,46.052586,7.148738
8507470,Lalden,46.301482,7.908359
8509057,Malans,46.977656,9.573718
8501423,Vionnaz,46.315025,6.916205
8501563,Les Marécottes,46.112312,7.011692
8505391,Lugano FLP,46.004489,8.947595
8501662,Obergesteln,46.513376,8.326242
8504306,Cortébert,47.189329,7.107296
8504073,Neirivue,46.52829,7.061567
8500215,Hägendorf,47.330261,7.843809
8501097,Pampigny-Sévery,46.576972,6.432172
8504464,Hagneck,47.058118,7.187927
8502248,Bremgarten Obertor,47.350605,8.343694
8507006,Münsingen,46.873346,7.559429
8505213,Bellinzona,46.195437,9.029508
8507493,Interlaken West,46.682628,7.85144
8588193,Gryon Bois-Gentil,46.277725,7.067564
8500167,Les Breuleux-Eglise,47.213111,7.0024
8500202,Grenchen Süd,47.188767,7.398174
8505399,Sorengo,46.000395,8.93483
8505073,Romiti Felsentor,47.036441,8.475923
8501693,Rotenboden,45.984466,7.765374
8503007,Zürich Seebach,47.418747,8.544636
8501200,Vevey,46.462998,6.843449
8507560,Winteregg,46.581805,7.896048
8505395,Agno,45.995937,8.900913
8506289,Wasserauen,47.285737,9.428834
8502123,Buchs AG,47.389737,8.069578
174,Gotthard-Basistunnel,46.680773,8.765599
8508003,Hindelbank,47.049557,7.5454
8501561,Vernayaz MC,46.130127,7.044933
8502201,Gisikon-Root,47.121327,8.394776
8503220,Lachen,47.190069,8.852692
8505179,Segnas,46.691002,8.829812
8509199,Spinas,46.559846,9.845335
8502102,Oberentfelden,47.356481,8.048377
8501476,Les Aviolats,46.352971,7.113169
8502174,Bleien Liebegg,47.343526,8.113536
8501576,Sembrancher,46.077102,7.146293
8504495,Bern Stöckacker,46.946354,7.401172
8504475,Gerolfingen,47.074976,7.201238
8501469,Les Fontanelles,46.34313,7.045463
8509416,Unterterzen,47.113856,9.255007
8505204,Faido,46.483077,8.790702
8506203,Bütschwil,47.359592,9.075135
8506127,Bottighofen,47.640708,9.213081
139,Damm,47.217327,8.805061
8509261,Carolina,46.670372,10.059874
8506000,Winterthur,47.500334,8.723799
8505405,Quartino,46.151303,8.887319
8503405,Zweidlen,47.570441,8.467892
8530066,Grand-Moulin,46.252616,7.023231
8501690,Zermatt GGB,46.02395,7.74868
8502217,Mühlau,47.225015,8.38851
8507475,Kandersteg,46.495524,7.671265
8509264,Lavin,46.76957,10.110967
8503091,Zürich Giesshübel,47.362456,8.521849
8504088,Broc-Village,46.604052,7.098744
8504011,Grandvaux,46.496942,6.722647
8501374,Fontanivent,46.452722,6.902341
8500184,La Chaux-de-Fonds-Est,47.10348,6.837161
8506368,Gfeld,47.404994,9.455874
8507295,Därstetten,46.658864,7.495418
8504115,Thörishaus Dorf,46.893561,7.351857
8509003,Maienfeld,47.003835,9.529195
8506398,Neukirch-Egnach,47.538795,9.375834
8502199,Schöftland,47.305878,8.050008
8503057,Uetliberg,47.352364,8.487653
8500118,Dornach-Arlesheim,47.488609,7.611106
8500263,Im Holz,47.230909,7.475007
8509067,Klosters Dorf,46.883471,9.875322
8501306,Chamby-Musée,46.453822,6.912405
8500100,Tavannes,47.219839,7.201634
8501371,Caux,46.431136,6.938529
8509177,Rabius-Surrein,46.732577,8.957496
8501664,Geschinen,46.491654,8.282108
8500103,Sorvilier,47.239238,7.305765
8509265,Guarda,46.771517,10.150534
8505374,Generoso Vetta,45.928103,9.019005
8501210,"Lausanne, Bourdonnette",46.523266,6.589805
8501425,Les Evouettes,46.36286,6.879465
8501396,Flendruz,46.482092,7.186071
8500090,Basel Bad Bf,47.568147,7.607284
8500101,Reconvilier,47.235225,7.22741
8504076,Estavannens,46.573366,7.086545
8503225,Ziegelbrücke,47.136152,9.060037
8502042,Hochdorf Schönau,47.164655,8.298212
8500195,La Combe,47.284913,7.100104
8503070,Emmat,47.292387,8.701828
8500293,Thalbrücke,47.308548,7.68822
8505217,Mezzovico,46.094282,8.928584
8500034,Buckten,47.408984,7.847786
8501061,La Givrine,46.454586,6.111452
8501217,"Chavannes-près-Renens, Crochy",46.532715,6.569973
8500143,Grandgourt,47.469914,7.048094
8518771,Biel/Bienne Bözingenfeld/Champ,47.158389,7.294587
8530712,"Colombier NE, Les Chézards",46.960835,6.863949
8501065,Le Muids,46.454289,6.215442
8500207,Solothurn,47.204181,7.542684
8501160,Lausanne-Chauderon,46.523226,6.626064
8501470,Verchiez,46.308174,6.983668
8504391,Les Frêtes,47.058602,6.725807
8506352,Wartensee,47.471801,9.533579
8507284,Enge im Simmental,46.647487,7.417634
8504472,Sutz,47.101871,7.219416
8504066,Vuadens-Sud,46.617957,7.020168
8501676,Mörel,46.35621,8.047137
8500187,Vendlincourt,47.45254,7.156649
8506317,Heerbrugg,47.410386,9.627243
8501579,Le Châble,46.078744,7.215039
8501403,St-Maurice,46.216364,7.002049
8501059,Les Plantaz,46.391143,6.229037
8530064,Bex Pont-Neuf,46.25052,7.020836
8505068,Rigi Staffel,47.053683,8.474242
8505004,Arth-Goldau,47.049157,8.549491
8504013,Chexbres-Village,46.481053,6.778542
8503428,Diessenhofen,47.68547,8.752279
8508213,Entlebuch,46.993692,8.06235
8500092,Hölstein Süd,47.422973,7.767807
8505396,Magliaso,45.981642,8.884115
8500123,Glovelier,47.335201,7.209296
8508329,Brienz West,46.757312,8.020363
8508390,Stansstad,46.976267,8.336335
8508054,Worblaufen,46.97884,7.457623
8505062,Goldau A4,47.043583,8.547256
8501008,Genève,46.210203,6.142452
8503236,Luchsingen-Hätzingen,46.965065,9.039008
8503075,Waltikon,47.336796,8.617026
8503093,Zürich Manegg,47.338378,8.519679
8501171,Etagnières,46.600048,6.61303
8506101,Felben-Wellhausen,47.577102,8.94316
8508262,Walkringen,46.947668,7.618993
132,Bahn-2000-Strecke,47.196374,7.68936
8500262,Lommiswil,47.218579,7.469494
8503096,Adliswil,47.312304,8.524164
8507084,Moos,46.910013,7.401184
8503117,Kaltbrunn,47.217979,9.022417
8505001,Meggen,47.050143,8.383044
8508162,Roggwil Dorf,47.239299,7.822531
8509350,Celerina Staz,46.509656,9.865121
8014484,Beringen Bad Bf,47.694897,8.574616
8501554,Aigle-Place-du-Marché,46.317241,6.970349
8589198,Worbboden,46.933929,7.559525
8500024,Lausen,47.470197,7.759821
8504400,Kerzers,46.975068,7.192797
8500181,La Chaux-d'Abel,47.152719,6.898712
8505164,Hospental,46.621085,8.570961
8506123,Kesswil,47.595498,9.317405
8504302,Reuchenette-Péry,47.189729,7.247013
8508217,Schachen LU,47.037967,8.143246
8504388,Les Ponts-de-Martel,46.999637,6.735874
8503289,Freienbach SOB,47.204204,8.759383
8502010,St. Erhard-Knutwil,47.180077,8.074561
8506139,Stein am Rhein,47.656109,8.855006
8503141,Küsnacht Goldbach,47.326854,8.575951
8509364,Le Prese,46.29216,10.077861
8501422,Collombey,46.271181,6.948759
8509076,Davos Glaris,46.745568,9.779932
8503340,Opfikon,47.429952,8.561769
8501112,Chavornay,46.710077,6.56816
8504201,Grandson,46.80627,6.641936
8506023,Ossingen,47.614611,8.724093
8500216,Wangen bei Olten,47.341398,7.868347
8506311,Rorschach,47.477999,9.505131
8502012,Rothenburg Dorf,47.090907,8.273176
8506470,Stofel,47.391106,9.380054
8504293,Essert-sous-Champvent,46.795339,6.579826
8501229,Monthey-En Place,46.26023,6.945927
8503319,Niederweningen,47.511198,8.369607
8518452,Prilly-Malley,46.52669,6.602629
8516155,Lancy-Pont-Rouge,46.188898,6.12533
8501152,Le Séchey,46.658453,6.306014
8507471,Eggerberg,46.30672,7.881003
8504398,"Neuchâtel,Place Pury Littorail",46.989412,6.928188
8509263,Susch,46.75208,10.079326
8508399,Engelberg,46.819524,8.402642
8500220,Dotzigen,47.11866,7.337744
8507086,Niederscherli,46.88645,7.388107
8500173,Les Breuleux,47.210432,7.005155
